{"_id":{"$oid":"5dd646b82669dd48a52045d0"},"base_url":"https://www.farsnews.com","url":"https://www.farsnews.ir/archive","box":"body \u003e div.main-content.position-relative \u003e main \u003e div.container.pt-4 \u003e div \u003e div.col-12.col-lg-9.float-right \u003e div \u003e div.d-flex.flex-wrap.w-100.col-12.mb-3.padding-normal \u003e div \u003e ul \u003e li","link":"a","summary":"div \u003e a \u003e div \u003e p","date":"div \u003e a \u003e span","title":"div \u003e a \u003e div \u003e span.title.d-block.mb-2","create_date":{"$date":"2019-11-21T11:41:36.881Z"},"last_update":{"$date":"2020-04-30T16:30:16.042Z"},"image":"a \u003e img","text":"body \u003e div.main-content.position-relative \u003e main \u003e div.container.pt-4 \u003e div \u003e div.col-12.col-lg-8.d-flex.pr-3.pr-sm-0.pl-sm-0 \u003e div.news-box.w-100 \u003e div.nt-frame","source_id":"5dff7a8b6edd2c10d1c4f863","exclude":["div.d-flex.w-100.flex-column-reverse.flex-sm-row \u003e div \u003e div.header.py-2.mb-4.d-flex.flex-wrap.justify-content-between.align-items-center.text-right.px-2.border-bottom","div.d-flex.w-100.flex-column-reverse.flex-sm-row \u003e div \u003e div.social-share-mob.d-block.d-lg-none","div.tags.mt-4.text-right.d-flex.flex-wrap","div.rel-news.mt-4"]}
{"_id":{"$oid":"5dd65691730fdc3d2a7625ff"},"base_url":"https://www.entekhab.ir","url":"https://www.entekhab.ir/","box":"#home \u003e div.visible-lg.visible-md.visible-sm.hidden-ms.hidden-xs \u003e div \u003e div \u003e div \u003e div.col-2.col-xs-36.col-sm-24.col-md-16.col-lg-14.col-md-pull-7.col-lg-pull-9 \u003e div.im-news.col-xs-36 \u003e section \u003e div.im-news-contents.col-xs-36 \u003e div","link":"div \u003e h2 \u003e a","summary":"div \u003e div.im-news-sub","date":"","title":"div \u003e h2","image":"div \u003e a \u003e img","create_date":{"$date":"2019-11-21T12:49:13.523Z"},"last_update":{"$date":"2019-12-22T17:50:22.776Z"},"text":"#news \u003e div.visible-lg.visible-md.visible-sm.hidden-ms.hidden-xs \u003e div \u003e div \u003e div \u003e div \u003e div.col-xs-36.col-sm-36.col-md-20.col-lg-18.col-2.khabar.col-md-pull-8.col-lg-pull-9 \u003e div.col-xs-36.khabar-matn \u003e div.body.col-xs-36","source_id":"5dff79f96edd2c10d1c4f858"}
{"_id":{"$oid":"5dd659c9730fdc3d2a762609"},"base_url":"https://www.tabnak.ir","url":"https://www.tabnak.ir","box":"#home \u003e div:nth-child(4) \u003e div:nth-child(1) \u003e div \u003e div \u003e section \u003e div.service_content \u003e div","link":"div.box_economic \u003e h2 \u003e a","summary":"div.lead1","date":"","title":"div.box_economic \u003e h2 \u003e a","image":"a \u003e img","create_date":{"$date":"2019-11-21T13:02:57.844Z"},"last_update":{"$date":"2020-04-21T15:11:25.414Z"},"text":"#news \u003e div.container.night_mode_news \u003e div \u003e div.col-md-22.col-sm-24.gutter_news \u003e div.body","source_id":"5dff79756edd2c10d1c4f84d"}
{"_id":{"$oid":"5dd65ae0730fdc3d2a762613"},"base_url":"https://www.isna.ir","url":"https://www.isna.ir/archive","box":"body \u003e main \u003e div:nth-child(1) \u003e div \u003e div \u003e div \u003e section \u003e div \u003e ul \u003e li","link":"div \u003e h3 \u003e a","summary":"div \u003e p","date":"div \u003e time \u003e a","title":"div \u003e h3 \u003e a","image":"figure \u003e a \u003e img","create_date":{"$date":"2019-11-21T13:07:36.288Z"},"last_update":{"$date":"2019-12-22T17:50:03.659Z"},"text":"#item \u003e div.full-news \u003e div.full-news-text \u003e div.item-body.content-full-news","source_id":"5dff79136edd2c10d1c4f842"}
{"_id":{"$oid":"5dd65c34730fdc3d2a76261d"},"base_url":"https://www.irna.ir","url":"https://www.irna.ir/archive","box":"#box4 \u003e div \u003e ul \u003e li","link":"div \u003e h3 \u003e a","summary":"div \u003e p","date":"div \u003e time \u003e a","title":"div \u003e h3 \u003e a","image":"figure \u003e a \u003e img","create_date":{"$date":"2019-11-21T13:13:16.531Z"},"last_update":{"$date":"2020-03-07T17:37:30.922Z"},"text":"#item","source_id":"5dff77c86edd2c10d1c4f833","exclude":["div:nth-child(2) \u003e div.item-nav","div.item-footer.row","div.item-boxes",".print-header","div.item-header.d-lg-none \u003e div"]}
{"_id":{"$oid":"5e43d8602e431e4804e7966b"},"source_id":"5e43cbc62e431e4804e79630","base_url":"https://www.zoomit.ir","url":"https://www.zoomit.ir/page/1","box":"#ArticleDetails \u003e div.bg-white.clearfix.mrg15B.pad20A \u003e div","link":"div.col-md-8.col-sm-8.col-xs-8.item-list-text \u003e h3 \u003e a","summary":"div.col-md-8.col-sm-8.col-xs-8.item-list-text \u003e p","date":"div.col-md-8.col-sm-8.col-xs-8.item-list-text \u003e div.ListItemHeader \u003e span.datelist","title":"div.col-md-8.col-sm-8.col-xs-8.item-list-text \u003e h3 \u003e a","image":"div.col-md-4.col-sm-4.col-xs-4.item-list-img.col-xs-pad0L \u003e a \u003e img","text":"#ArticleDetails \u003e div","create_date":{"$date":"2020-02-12T14:20:08.285Z"},"last_update":{"$date":"2020-04-21T15:34:59.457Z"},"exclude":["div.article-content \u003e script:nth-child(21)","#commentTemplate","div.article-content \u003e div:nth-child(19)","div.article-content \u003e div.Comment-ad","#pos-article-display-6584","div.article-content \u003e div.article-related-row","div.article-content \u003e div.text-ad-bottom","div.article-content \u003e meta:nth-child(14)","div.article-content \u003e meta:nth-child(13)","div.article-content \u003e meta:nth-child(12)","div.article-content \u003e meta:nth-child(11)","div.article-content \u003e meta:nth-child(10)","div.article-content \u003e meta:nth-child(9)","div.article-content \u003e div.article-tag-row","div.article-content \u003e div.article-source-row","div.article-content \u003e div.article-section \u003e div.relatedapepnt","div.article-content \u003e div.article-section \u003e div.beforesource","div.article-header.item-list-text \u003e div \u003e div.z-comment-block","div.article-header.item-list-text \u003e div \u003e div.catgroup","div.article-header.item-list-text \u003e div \u003e meta","div.article-header.item-list-text \u003e div \u003e div.author-row.clearfix"]}
{"_id":{"$oid":"5e43e2ae2e431e4804e79d7a"},"source_id":"5e43e2022e431e4804e797e8","base_url":"https://www.iranjib.ir","url":"https://www.iranjib.ir","box":"#newscontent \u003e tbody \u003e tr","link":"td:nth-child(2) \u003e h3 \u003e a","summary":"td:nth-child(2) \u003e div:nth-child(2) \u003e p","date":"","title":"td:nth-child(2) \u003e h3 \u003e a","image":"td:nth-child(1) \u003e a \u003e img","text":"#newscontent","create_date":{"$date":"2020-02-12T15:04:06.951Z"},"last_update":{"$date":"2020-04-21T15:43:27.470Z"}}
{"_id":{"$oid":"5e43e5142e431e4804e79daf"},"source_id":"5e43e3c62e431e4804e79d8d","base_url":"https://donya-e-eqtesad.com","url":"https://donya-e-eqtesad.com/newsstudios/archive/?curp=1\u0026author=\u0026categories=62\u0026order=order_time","box":"body \u003e div \u003e div \u003e main \u003e div \u003e div \u003e div.primary-archive-cell \u003e section \u003e ul \u003e li","link":"div.right-archive-bx \u003e a","summary":"div.left-archive-bx \u003e div.lead","date":"div.left-archive-bx \u003e div.archive-date \u003e time:nth-child(1)","title":"div.left-archive-bx \u003e h2 \u003e a","image":"","text":"#news-page-article","create_date":{"$date":"2020-02-12T15:14:20.880Z"},"last_update":{"$date":"2020-04-21T15:54:30.073Z"},"exclude":["div.article-body \u003e div.rating-news","div.article-body \u003e div.article-detail.noprint"]}
{"_id":{"$oid":"5e43e7902e431e4804e79e71"},"source_id":"5e43e6502e431e4804e79dc2","base_url":"https://www.mehrnews.com","url":"https://www.mehrnews.com/archive","box":"#box517 \u003e div \u003e ul \u003e li","link":"div \u003e h3 \u003e a","summary":"div \u003e p","date":"div \u003e time \u003e a","title":"div \u003e h3 \u003e a","image":"figure \u003e a \u003e img","text":"#item","create_date":{"$date":"2020-02-12T15:24:56.868Z"},"last_update":{"$date":"2020-02-26T12:55:09.620Z"},"exclude":["div.print-header","div.item-header \u003e div.item-nav.row","div.item-footer.row","section","div.yn-article-display","div.item-boxes","div.item-body \u003e div.item-code","div.item-body \u003e div.pull-right.item-author"]}
{"_id":{"$oid":"5e43ed1a2e431e4804e79f02"},"source_id":"5e43e81a2e431e4804e79e84","base_url":"https://www.jamnews.com","url":"https://www.jamnews.com/archive/service/0","box":"#frmMain \u003e div.container-fluid \u003e div.MainColumn.col-lg-9.col-md-9.col-sm-12.col-xs-12 \u003e div \u003e div.Items.alJ.drR","link":"div.Text.col-lg-10.col-md-9.col-sm-9.col-xs-8 \u003e a","summary":"div.Text.col-lg-10.col-md-9.col-sm-9.col-xs-8 \u003e div.Lead.alJ.mB5.flR.w100","date":"div.Text.col-lg-10.col-md-9.col-sm-9.col-xs-8 \u003e span","title":"div.Text.col-lg-10.col-md-9.col-sm-9.col-xs-8 \u003e a","image":"div.PicLead.flR.col-lg-2.col-md-3.col-sm-3.col-xs-4 \u003e img","text":"#mainPlace_WI_146_newsDetailContainer","create_date":{"$date":"2020-02-12T15:48:34.972Z"},"last_update":{"$date":"2020-06-23T09:42:36.603Z"}}
{"_id":{"$oid":"5e43f29c2e431e4804e79fdf"},"source_id":"5e43ee312e431e4804e79fc9","base_url":"https://www.tasnimnews.com","url":"https://www.tasnimnews.com/fa/archive","box":"body \u003e div.container \u003e main \u003e div \u003e section.body.col-md-9.col-sm-12.col-xs-12 \u003e div \u003e section.main.col-sm-8.col-xs-12 \u003e div:nth-child(1) \u003e section \u003e section \u003e section \u003e section \u003e article:nth-child(n+1)","link":"a","summary":"a \u003e div.col-md-8.col-xs-8.text-container.vcenter \u003e h4","date":"a \u003e div.col-md-8.col-xs-8.text-container.vcenter \u003e time","title":"a \u003e div.col-md-8.col-xs-8.text-container.vcenter \u003e h2","image":"a \u003e div.col-md-4.col-xs-4.image-container.vcenter \u003e figure \u003e img","text":"body \u003e div.container \u003e main \u003e div \u003e section.body.col-md-9.col-sm-12.col-xs-12 \u003e div \u003e section.col-sm-8.col-xs-12 \u003e article","create_date":{"$date":"2020-02-12T16:12:04.108Z"},"last_update":{"$date":"2020-03-01T16:20:53.556Z"},"exclude":["ul","div.sharer","div.share-box","div.short-url","style","div.comment-container","section.news-container","div.footer"]}
{"_id":{"$oid":"5e43f5012e431e4804e7a004"},"source_id":"5e43f3712e431e4804e79ff2","base_url":"https://www.yjc.ir","url":"https://www.yjc.ir","box":"#home \u003e div.container.visible-lg.visible-md.visible-sm \u003e div \u003e div.col-sm-36 \u003e div \u003e div.col-xs-36.col-sm-36.col-ms-36.col-md-24 \u003e div \u003e div.col-xs-36.col-ms-36.col-sm-24.col-md-24.padd_left4 \u003e div.akhv \u003e div","link":"div.akhv_titr \u003e h2 \u003e a","summary":"div.lead1","date":"","title":"div.akhv_titr \u003e h2 \u003e a","image":"a \u003e img","text":"#root","create_date":{"$date":"2020-02-12T16:22:17.795Z"},"last_update":{"$date":"2020-04-27T11:07:03.465Z"},"exclude":["div.body \u003e p:nth-child(22)","div.body \u003e div"]}
{"_id":{"$oid":"5e9dba847631f639c489a1da"},"box":"#home \u003e div.container.common-main.home-main \u003e div.page_home.top \u003e div:nth-child(4) \u003e div.col1.padd_l \u003e div.box2-cover.c-box-cover.panel_kh.row \u003e article","create_date":{"$date":"2020-04-20T15:06:44.430Z"},"title":"h2 \u003e a","url":"https://www.asriran.com/#tab_new1","text":"#news \u003e div.container.common-main.news-main \u003e div \u003e div.row \u003e div.col1-news \u003e div:nth-child(13) \u003e div.body","image":"a \u003e img","base_url":"http://www.asriran.com","summary":"div.lead1","date":"","link":"a","source_id":"5e9daf497631f639c489a135","exclude":["div.title","div.short-link.row"],"last_update":{"$date":"2020-04-21T14:38:01.545Z"}}
{"_id":{"$oid":"5e9eee5f7631f639c489a424"},"box":"#box202 \u003e div \u003e ul \u003e li","create_date":{"$date":"2020-04-21T13:00:15.304Z"},"title":"div \u003e h3 \u003e a","url":"https://www.khabaronline.ir/archive","text":"#item","image":"figure \u003e a \u003e img","base_url":"https://www.khabaronline.ir","summary":"div \u003e p","date":"div \u003e time \u003e a","link":"figure \u003e a","source_id":"5e9dc4e77631f639c489a1fd","exclude":["div.item-footer.row","#box298","#box261","#box285","section.box.tags","div.item-boxes","div.print-header","div.item-header \u003e div.item-nav.row"],"last_update":{"$date":"2020-04-21T16:20:05.341Z"}}
{"_id":{"$oid":"5e9f1ed87631f639c489a7e2"},"box":"body \u003e main \u003e div:nth-child(1) \u003e div \u003e div \u003e div \u003e section \u003e div \u003e ul \u003e li","create_date":{"$date":"2020-04-21T16:27:04.546Z"},"title":"div \u003e h3 \u003e a","url":"https://www.mashreghnews.ir/archive","text":"#item","image":"figure \u003e a \u003e img","base_url":"https://www.mashreghnews.ir","summary":"div \u003e p","date":"div \u003e time \u003e a","link":"figure \u003e a","source_id":"5e9f1d957631f639c489a7cc","exclude":["div.print-header","div.item-header \u003e div.item-nav.row","div.item-header \u003e div:nth-child(2)","div.item-body \u003e div.item-text \u003e blockquote","div.item-body \u003e div.item-source","div.item-footer.row","div.item-boxes"],"last_update":{"$date":"2020-04-21T16:27:04.546Z"}}
{"_id":{"$oid":"5e9f20877631f639c489a813"},"box":"#home \u003e div.container.main_content.main-cn \u003e div:nth-child(2) \u003e div.col-xs-36.col-lg-23.col-md-23 \u003e div.textadv_home_p \u003e div.report-section \u003e section \u003e div \u003e div","create_date":{"$date":"2020-04-21T16:34:15.915Z"},"title":"h2 \u003e a","url":"https://fararu.com","text":"#news \u003e div.container.main_content \u003e div \u003e div.col-lg-32.col-md-31.col-sm-36.col-ms-36.col-xs-36.pull-left \u003e div \u003e div.col-md-25.col-sm-36.col-ms-36.col-xs-36.news_col2 \u003e div:nth-child(10)","image":"a \u003e img","base_url":"https://fararu.com","summary":"div.vizhe_lead","date":"","link":"a","source_id":"5e9f1f607631f639c489a7fd","exclude":["div \u003e div.row \u003e div.news_tools"],"last_update":{"$date":"2020-04-21T16:34:15.915Z"}}
{"_id":{"$oid":"5e9f4d167631f639c489a888"},"box":"#home \u003e section.row1.row \u003e section \u003e section \u003e div.col-md-32.col-lg-32.col-sm-36.col-1 \u003e div \u003e div.col-xs-36.col-md-24.col-sm-22.col-1-1 \u003e section.im-news.row \u003e section \u003e section \u003e div \u003e article","create_date":{"$date":"2020-04-21T19:44:22.704Z"},"title":"div \u003e h3 \u003e a","url":"https://www.parsine.com","text":"#news \u003e div:nth-child(1) \u003e section \u003e section \u003e section \u003e div.col-md-32.col-lg-32.col-sm-36.col-1 \u003e div \u003e div.col-xs-36.col-md-24.col-sm-22.col-1-1 \u003e div \u003e div.general-news-body \u003e section.body.row","image":"a \u003e img","base_url":"https://www.parsine.com","summary":"div \u003e div.im-news-lead","date":"","link":"a","source_id":"5e9f21297631f639c489a826","exclude":"","last_update":{"$date":"2020-04-21T21:43:41.977Z"}}
{"_id":{"$oid":"5ea47b4e7631f639c489aa59"},"box":"#Home_NewsList_168_pnl \u003e div \u003e a","create_date":{"$date":"2020-04-25T18:02:54.793Z"},"title":"article \u003e h3","url":"https://ana.ir/fa/allstories","text":"#Home_NewsViewPro_413_pnlNews","image":"figure \u003e img","base_url":"https://ana.ir","summary":"article \u003e div.lead","date":"article \u003e div.datetime \u003e span","link":"a","source_id":"5ea46f407631f639c489aa35","exclude":["div.details"],"last_update":{"$date":"2020-04-25T18:02:54.793Z"}}
{"_id":{"$oid":"5ea487df7631f639c489aa7b"},"box":"#news-list \u003e div.section-content \u003e div \u003e div","create_date":{"$date":"2020-04-25T18:56:31.020Z"},"title":"div.media-body \u003e div.media-heading \u003e a \u003e div","url":"http://www.aryanews.com/Service/296/%D8%A7%D8%AE%D8%A8%D8%A7%D8%B1-%D9%85%D9%86%D8%AA%D8%AE%D8%A8-%D8%B1%D8%B3%D8%A7%D9%86%D9%87-%D9%87%D8%A7","text":"#content-news \u003e div.section-content","image":"div.media-left \u003e a \u003e img","base_url":"http://www.aryanews.com","summary":"div.media-body \u003e div.description","date":"div.media-body \u003e div.info \u003e span.date-created","link":"div.media-body \u003e div.media-heading \u003e a","source_id":"5ea484dd7631f639c489aa64","exclude":["div.info-news","div:nth-child(5)","div:nth-child(6)","div.comment-write"],"last_update":{"$date":"2020-04-25T18:56:31.020Z"}}
{"_id":{"$oid":"5ea48b267631f639c489aac4"},"box":"#st-container \u003e div \u003e section \u003e div.xcon12.main.mt16.mb32 \u003e div \u003e div.column_one.float \u003e div \u003e section \u003e ul \u003e li","create_date":{"$date":"2020-04-25T19:10:30.164Z"},"title":"h3 \u003e a","url":"https://www.ilna.news/newsstudios/archive/?curp=1","text":"#st-container \u003e div \u003e section \u003e div.xcon12.main.mt16.mb32 \u003e div \u003e div.column_one.float \u003e div \u003e article","image":"a \u003e img","base_url":"https://www.ilna.news","summary":"p","date":"time","link":"a","source_id":"5ea489a87631f639c489aab2","exclude":["header \u003e div.clearbox.fn12.news_info.mb16","header \u003e div.mb16.clearbox.fn11.bread_crumbs","header \u003e h2","div.short-link-cnt","section.word_key.fn12.mt16.noprint.clearbox","div.clearbox.mt16.noprint"],"last_update":{"$date":"2020-04-30T16:28:04.110Z"}}
{"_id":{"$oid":"5ea492e07631f639c489aaf1"},"box":"#box207 \u003e div \u003e ul \u003e li","create_date":{"$date":"2020-04-25T19:43:28.218Z"},"title":"div \u003e h3 \u003e a","url":"https://www.imna.ir/archive","text":"#item","image":"figure \u003e a \u003e img","base_url":"https://www.imna.ir","summary":"div \u003e p","date":"div \u003e time \u003e a","link":"figure \u003e a","source_id":"5ea4915c7631f639c489aadf","exclude":["div.print-header","div.item-header \u003e div.item-nav.row","div.item-footer.row","section","div.item-boxes"],"last_update":{"$date":"2020-06-23T10:08:53.048Z"}}
{"_id":{"$oid":"5ea49a177631f639c489ab0e"},"box":"#list \u003e div.container \u003e div \u003e div.row.my_page \u003e div.col-lg-25.col-md-22.col-sm-25.padd_col_l2 \u003e div \u003e div.inn_cont_all \u003e div \u003e div.service_content \u003e div \u003e div","create_date":{"$date":"2020-04-25T20:14:15.549Z"},"title":"div.news_bottom \u003e div.row \u003e h2 \u003e a","url":"https://www.mizanonline.com/fa/allnews","text":"#news \u003e div.container \u003e div \u003e div.row.my_page \u003e div.col-md-22.col-sm-36.padd_news.b_margin \u003e div.top_news_body \u003e div:nth-child(1) \u003e div.body.search_txt","image":"div.news_bottom \u003e div.row \u003e a \u003e img","base_url":"https://www.mizanonline.com","summary":"div.news_bottom \u003e div.row \u003e div.lead2","date":"div.news_bottom \u003e div.row \u003e div.rutitr4 \u003e div","link":"div.news_bottom \u003e div.row \u003e a","source_id":"5ea4983a7631f639c489aafc","exclude":["ul"],"last_update":{"$date":"2020-04-25T20:14:15.549Z"}}
{"_id":{"$oid":"5ea4ada17631f639c489ab30"},"box":"div.col-md-9.col-sm-9 \u003e div \u003e div.col-md-8.col-sm-12.main-list \u003e article.clearfix","create_date":{"$date":"2020-04-25T21:37:37.301Z"},"title":"div \u003e h2 \u003e a","url":"http://econews.ir/fa/news/category/%D8%AF%D8%B3%D8%AA%D9%87-%D8%A8%D9%86%D8%AF%DB%8C-%D8%B9%D9%85%D9%88%D9%85%DB%8C","text":"body \u003e main \u003e div:nth-child(3) \u003e div.row \u003e div.col-md-6.col-sm-8.content-original \u003e article","image":"div \u003e a \u003e div \u003e img","base_url":"http://econews.ir","summary":"div \u003e section \u003e a","date":"div \u003e div","link":"div \u003e a","source_id":"5ea4ac317631f639c489ab1a","exclude":["header \u003e div","footer"],"last_update":{"$date":"2020-06-23T10:07:03.366Z"}}
{"_id":{"$oid":"5ea4b8de7631f639c489ab4d"},"box":"body \u003e div \u003e div \u003e div \u003e main \u003e div \u003e div \u003e div.primary-archive-cell \u003e section \u003e ul \u003e li","create_date":{"$date":"2020-04-25T22:25:34.445Z"},"title":"div.left-service \u003e h2 \u003e a","url":"https://www.borna.news/newsstudios/archive/?curp=1\u0026dateRange%5Bstart%5D=-2592000\u0026order=order_time\u0026ptitle=%D8%A2%D8%AE%D8%B1%DB%8C%D9%86+%D8%B9%D9%86%D8%A7%D9%88%DB%8C%D9%86","text":"#news-page-article","image":"div.right-service \u003e a \u003e img","base_url":"https://www.borna.news","summary":"div.left-service \u003e p","date":"div.left-service \u003e div \u003e time:nth-child(1)","link":"div.right-service \u003e a","source_id":"5ea4b6e67631f639c489ab37","exclude":["div.breadcrumb.noprint","header \u003e div.news-short-info.noprint","#view_inline_agahi2 \u003e section","div.article-body \u003e div.jounalistian.noprint","div.article-body \u003e div.article-detail.noprint","div.article-body \u003e div.short-link-cnt.noprint","div.article-body \u003e div.news-share-icons.noprint"],"last_update":{"$date":"2020-04-25T22:25:34.445Z"}}
{"_id":{"$oid":"5ea4bb287631f639c489ab66"},"box":"body \u003e div.container \u003e main \u003e div \u003e div.col-12.col-sm-12.col-md-7.col-lg-8.col-xl-6.order-3.order-sm-3.order-md-3.order-lg-4.order-xl-4.mb-3 \u003e section \u003e section \u003e div \u003e article","create_date":{"$date":"2020-04-25T22:35:20.686Z"},"title":"div.media-body.text-justify \u003e h1 \u003e a","url":"https://www.alef.ir","text":"body \u003e div.container \u003e main \u003e div \u003e div.col-12.col-sm-12.col-md-8.col-lg-8.col-xl-9 \u003e div \u003e div.col-12.col-sm-12.col-md-12.col-lg-12.col-xl-10 \u003e article","image":"a \u003e img","base_url":"https://www.alef.ir","summary":"","date":"div.media-body.text-justify \u003e span \u003e time","link":"a","source_id":"5ea4b9f17631f639c489ab54","exclude":["header \u003e span.post-sous","header \u003e span.post-stat.mb-2","footer"],"last_update":{"$date":"2020-04-25T22:35:20.686Z"}}
{"_id":{"$oid":"5ea4bf157631f639c489ab83"},"box":"#bargozidehcn \u003e div \u003e div","create_date":{"$date":"2020-04-25T22:52:05.592Z"},"title":"div.specail-padding \u003e div.special-title \u003e a","url":"http://www.jahannews.com/vtpb8euh.7k2-rpiuur.html","text":"body \u003e div:nth-child(2) \u003e div \u003e div \u003e div.col-lg-8.col-md-7.col-sm-12.col-xs-12.doc_content","image":"div.special-image-box \u003e div \u003e a \u003e div \u003e img","base_url":"http://www.jahannews.com","summary":"div.specail-padding \u003e div.first-abs.hidden-xs","date":"div.specail-padding \u003e div.archive-doc-date","link":"div.specail-padding \u003e div.special-title \u003e a","source_id":"5ea4bbd07631f639c489ab71","exclude":["div:nth-child(1)","#docDiv3Date","#docDocID","div:nth-child(23)","script:nth-child(24)","div:nth-child(21)","a","div:nth-child(20)","div:nth-child(19)","script:nth-child(4)","div.clearfix","div.wb","#\\31 7","script:nth-child(8)","style:nth-child(9)","#\\31 7","script:nth-child(11)","style:nth-child(12)","#\\31 7","script:nth-child(14)","style:nth-child(15)","#\\31 7","script:nth-child(17)","style:nth-child(18)"],"last_update":{"$date":"2020-04-29T13:43:19.624Z"}}
{"_id":{"$oid":"5ea576867631f639c489acac"},"box":"body \u003e div \u003e main \u003e div \u003e div.main-wrapper \u003e div \u003e div.home-col-one \u003e div.right-h-col-one \u003e div.container.margin-top-16 \u003e div.editor-sg-cnt \u003e section \u003e ul \u003e li","create_date":{"$date":"2020-04-26T11:54:46.337Z"},"title":"div.l-editor-content \u003e h3 \u003e a","url":"https://www.rokna.net","text":"#news-page-article","image":"div.r-editor-content \u003e a \u003e img","base_url":"https://www.rokna.net","summary":"","date":"div.l-editor-content \u003e time","link":"div.r-editor-content \u003e a","source_id":"5ea55f127631f639c489aca2","exclude":["header \u003e div.home-zxc.res-zxc.zxc_dsktop","header \u003e div.home-zxc.res-zxc-mobile.zxc_mbile","header \u003e div:nth-child(3)","header \u003e div.news-top-stuff","header \u003e aside","#echo-detail \u003e div:nth-child(1) \u003e div","#echo-detail \u003e div:nth-child(1) \u003e p:nth-child(6)","#echo-detail \u003e div:nth-child(1) \u003e p:nth-child(7)","#echo-detail \u003e div.attach-side","#echo-detail \u003e div:nth-child(3)","#echo-detail \u003e script:nth-child(4)","#echo-detail \u003e div.news-bottom-link.noprint","#echo-detail \u003e script:nth-child(6)","#echo-detail \u003e div.rating-news","#echo-detail \u003e div:nth-child(8)","#echo-detail \u003e div:nth-child(9)"],"last_update":{"$date":"2020-04-26T11:54:46.337Z"}}
{"_id":{"$oid":"5ea5784e7631f639c489acc9"},"box":"#home \u003e div.row.body_b \u003e div \u003e div \u003e div.col1.col_no_adv.col-xs-36.col-md-21.col-lg-22 \u003e div:nth-child(2) \u003e div.col1_l_new.col-xs-36.col-md-23.col-lg-26.col-md-pull-13.col-lg-pull-10 \u003e div","create_date":{"$date":"2020-04-26T12:02:22.437Z"},"title":"h2 \u003e a","url":"https://aftabnews.ir","text":"#news \u003e div.row.body_b \u003e div \u003e div \u003e div.col-xs-36.col-sm-36.col-md-31.pull-left \u003e div.col_r_inner_news.col-xs-36.col-sm-26 \u003e div:nth-child(8)","image":"a \u003e img","base_url":"https://aftabnews.ir","summary":"div.akhbarvije_lead","date":"","link":"h2 \u003e a","source_id":"5ea5774e7631f639c489acb7","exclude":["div:nth-child(1)","#ynpos-6760","#ynpos-6761"],"last_update":{"$date":"2020-04-26T12:02:22.437Z"}}
{"_id":{"$oid":"5ea57e607631f639c489acea"},"box":"#content \u003e div \u003e div.col-md-10 \u003e div \u003e div \u003e div.col-md-8.middl \u003e div \u003e section:nth-child(4) \u003e div","create_date":{"$date":"2020-04-26T12:28:16.896Z"},"title":"div.post-excerpt \u003e h3 \u003e a","url":"https://eradenews.ir","text":"#content \u003e div \u003e div.col-md-10 \u003e div \u003e div \u003e div.col-md-8.middl \u003e div \u003e section","image":"div.post-thumbnail.medium \u003e a \u003e img","base_url":"https://eradenews.ir","summary":"div.post-excerpt \u003e div \u003e p","date":"div.post-thumbnail.medium \u003e span","link":"div.post-thumbnail.medium \u003e a","source_id":"5ea579ca7631f639c489acd4","exclude":["#lin-10","header","ul","div.post-content.clearfix \u003e ul","div.post-content.clearfix \u003e div.page-bottom","div:nth-child(6)","div.tag","#lin-10","div.box-inline","div.box-hidden","div.separator","div.ads","div:nth-child(14)","div.hints","div.box_wrapper"],"last_update":{"$date":"2020-04-30T16:44:02.158Z"}}
{"_id":{"$oid":"5ea583957631f639c489ad1e"},"box":"body \u003e div.container.m2 \u003e div \u003e div.col-md-12.col-offset-100.main-content \u003e div \u003e div.col-xs-12.col-sm-12.col-md-9 \u003e div.col-xs-12.col-sm-12.col-md-12.offset-300 \u003e div:nth-child(2) \u003e div.body \u003e div","create_date":{"$date":"2020-04-26T12:50:29.473Z"},"title":"a \u003e div \u003e h3","url":"https://www.khabarfoori.com/allstories","text":"body \u003e div.container.m2 \u003e div \u003e div.col-md-12.col-offset-100.main-content \u003e div \u003e div.col-xs-12.col-sm-12.col-md-9 \u003e div.col-xs-12.col-sm-12.col-md-12.offset-300","image":"a \u003e div \u003e div.category-img","base_url":"https://www.khabarfoori.com","summary":"a \u003e div \u003e p","date":"a \u003e div \u003e div.tools-box \u003e span","link":"a","source_id":"5ea580eb7631f639c489ad0c","exclude":["#pos-article-display-7243","div.endads","div.header-box \u003e div \u003e h4:nth-child(1)","div.header-box \u003e div \u003e h4:nth-child(3)","div.header-box \u003e div \u003e hr","div.header-box \u003e div \u003e div.category-box-detail","div.header-box \u003e div \u003e div.date-box","div.main.content-body.only-channel","div.no-print"],"last_update":{"$date":"2020-04-26T12:50:29.473Z"}}
{"_id":{"$oid":"5ea589967631f639c489ad78"},"box":"#featured_news \u003e ul \u003e li","create_date":{"$date":"2020-04-26T13:16:06.441Z"},"title":"div \u003e h2 \u003e a","url":"https://www.mojnews.com/%D8%A8%D8%AE%D8%B4-%D8%B3%DB%8C%D8%A7%D8%B3%DB%8C-3","text":"#news-page-content \u003e article","image":"a \u003e img","base_url":"https://www.mojnews.com/#gsc.tab=0","summary":"div \u003e p","date":"div \u003e div \u003e time","link":"div \u003e h2 \u003e a","source_id":"5ea4c0327631f639c489ab8e","exclude":["header \u003e div","header \u003e meta","script","div.rating-news.clearbox","div.news_tags.cont.clearfix.noprint","div.share_tinyurl.noprint"],"last_update":{"$date":"2020-06-23T10:33:10.784Z"},"category_id":"5ee089ec641642de280a0427"}
{"_id":{"$oid":"5ee1bc79a562842283e67229"},"box":"#featured_news \u003e ul \u003e li","create_date":{"$date":"2020-06-11T05:09:13.861Z"},"title":"div \u003e h2 \u003e a","url":"https://www.mojnews.com/%D8%A8%D8%AE%D8%B4-%D8%A7%D9%82%D8%AA%D8%B5%D8%A7%D8%AF%DB%8C-4","text":"#news-page-content \u003e article","image":"a \u003e img","base_url":"https://www.mojnews.com/#gsc.tab=0","summary":"div \u003e p","date":"div \u003e div \u003e time","link":"div \u003e h2 \u003e a","source_id":"5ea4c0327631f639c489ab8e","exclude":["header \u003e div","header \u003e meta","script","div.rating-news.clearbox","div.news_tags.cont.clearfix.noprint","div.share_tinyurl.noprint"],"last_update":{"$date":"2020-06-23T10:33:28.612Z"},"category_id":"5ee089fa641642de280a0431"}
{"_id":{"$oid":"5ee1bc7ba562842283e6723e"},"box":"#featured_news \u003e ul \u003e li","create_date":{"$date":"2020-06-11T05:09:15.222Z"},"title":"div \u003e h2 \u003e a","url":"https://www.mojnews.com/%D8%A8%D8%AE%D8%B4-%D8%A7%D8%AC%D8%AA%D9%85%D8%A7%D8%B9%DB%8C-5#gsc.tab=0","text":"#news-page-content \u003e article","image":"a \u003e img","base_url":"https://www.mojnews.com/#gsc.tab=0","summary":"div \u003e p","date":"div \u003e div \u003e time","link":"div \u003e h2 \u003e a","source_id":"5ea4c0327631f639c489ab8e","exclude":["header \u003e div","header \u003e meta","script","div.rating-news.clearbox","div.news_tags.cont.clearfix.noprint","div.share_tinyurl.noprint"],"last_update":{"$date":"2020-06-23T10:33:36.402Z"},"category_id":"5ee08a07641642de280a043b"}
{"_id":{"$oid":"5ee1bc7ea562842283e67253"},"box":"#featured_news \u003e ul \u003e li","create_date":{"$date":"2020-06-11T05:09:18.166Z"},"title":"div \u003e h2 \u003e a","url":"https://www.mojnews.com/%D8%A8%D8%AE%D8%B4-%D9%81%D8%B1%D9%87%D9%86%DA%AF%DB%8C-6#gsc.tab=0","text":"#news-page-content \u003e article","image":"a \u003e img","base_url":"https://www.mojnews.com/#gsc.tab=0","summary":"div \u003e p","date":"div \u003e div \u003e time","link":"div \u003e h2 \u003e a","source_id":"5ea4c0327631f639c489ab8e","exclude":["header \u003e div","header \u003e meta","script","div.rating-news.clearbox","div.news_tags.cont.clearfix.noprint","div.share_tinyurl.noprint"],"last_update":{"$date":"2020-06-23T10:33:45.351Z"},"category_id":"5ee08a39641642de280a045f"}
{"_id":{"$oid":"5ee1bc7ea562842283e67268"},"box":"#featured_news \u003e ul \u003e li","create_date":{"$date":"2020-06-11T05:09:18.846Z"},"title":"div \u003e h2 \u003e a","url":"https://www.mojnews.com/%D8%A8%D8%AE%D8%B4-%D9%88%D8%B1%D8%B2%D8%B4%DB%8C-7","text":"#news-page-content \u003e article","image":"a \u003e img","base_url":"https://www.mojnews.com/#gsc.tab=0","summary":"div \u003e p","date":"div \u003e div \u003e time","link":"div \u003e h2 \u003e a","source_id":"5ea4c0327631f639c489ab8e","exclude":["header \u003e div","header \u003e meta","script","div.rating-news.clearbox","div.news_tags.cont.clearfix.noprint","div.share_tinyurl.noprint"],"last_update":{"$date":"2020-06-23T10:33:54.090Z"},"category_id":"5ee08a15641642de280a0447"}
{"_id":{"$oid":"5ee1bc7fa562842283e6727e"},"box":"#featured_news \u003e ul \u003e li","create_date":{"$date":"2020-06-11T05:09:19.513Z"},"title":"div \u003e h2 \u003e a","url":"https://www.mojnews.com/%D8%A8%D8%AE%D8%B4-%D8%A8%DB%8C%D9%86-%D8%A7%D9%84%D9%85%D9%84%D9%84-8#gsc.tab=0","text":"#news-page-content \u003e article","image":"a \u003e img","base_url":"https://www.mojnews.com/#gsc.tab=0","summary":"div \u003e p","date":"div \u003e div \u003e time","link":"div \u003e h2 \u003e a","source_id":"5ea4c0327631f639c489ab8e","exclude":["header \u003e div","header \u003e meta","script","div.rating-news.clearbox","div.news_tags.cont.clearfix.noprint","div.share_tinyurl.noprint"],"last_update":{"$date":"2020-06-23T10:34:01.669Z"},"category_id":"5ee08a0f641642de280a0441"}
{"_id":{"$oid":"5ee1bc80a562842283e67293"},"box":"#featured_news \u003e ul \u003e li","create_date":{"$date":"2020-06-11T05:09:20.668Z"},"title":"div \u003e h2 \u003e a","url":"https://www.mojnews.com/%D8%A8%D8%AE%D8%B4-%D8%A7%D8%B3%D8%AA%D8%A7%D9%86-%D9%87%D8%A7-62#gsc.tab=0","text":"#news-page-content \u003e article","image":"a \u003e img","base_url":"https://www.mojnews.com/#gsc.tab=0","summary":"div \u003e p","date":"div \u003e div \u003e time","link":"div \u003e h2 \u003e a","source_id":"5ea4c0327631f639c489ab8e","exclude":["header \u003e div","header \u003e meta","script","div.rating-news.clearbox","div.news_tags.cont.clearfix.noprint","div.share_tinyurl.noprint"],"last_update":{"$date":"2020-06-23T10:34:10.988Z"},"category_id":"5ee08a22641642de280a0453"}
{"_id":{"$oid":"5ee1bc85a562842283e672a9"},"box":"#featured_news \u003e ul \u003e li","create_date":{"$date":"2020-06-11T05:09:25.208Z"},"title":"div \u003e h2 \u003e a","url":"https://www.mojnews.com/%D8%A8%D8%AE%D8%B4-%D8%B9%DA%A9%D8%B3-95","text":"#news-page-content \u003e article","image":"a \u003e img","base_url":"https://www.mojnews.com/#gsc.tab=0","summary":"div \u003e p","date":"div \u003e div \u003e time","link":"div \u003e h2 \u003e a","source_id":"5ea4c0327631f639c489ab8e","exclude":["header \u003e div","header \u003e meta","script","div.rating-news.clearbox","div.news_tags.cont.clearfix.noprint","div.share_tinyurl.noprint"],"last_update":{"$date":"2020-06-23T10:34:17.520Z"},"category_id":"5ee08a7b641642de280a0487"}
{"_id":{"$oid":"5ee1bc85a562842283e672be"},"box":"#featured_news \u003e ul \u003e li","create_date":{"$date":"2020-06-11T05:09:25.988Z"},"title":"div \u003e h2 \u003e a","url":"https://www.mojnews.com/%D8%A8%D8%AE%D8%B4-%D8%B5%D9%88%D8%AA-%D9%81%DB%8C%D9%84%D9%85-127#gsc.tab=0","text":"#news-page-content \u003e article","image":"a \u003e img","base_url":"https://www.mojnews.com/#gsc.tab=0","summary":"div \u003e p","date":"div \u003e div \u003e time","link":"div \u003e h2 \u003e a","source_id":"5ea4c0327631f639c489ab8e","exclude":["header \u003e div","header \u003e meta","script","div.rating-news.clearbox","div.news_tags.cont.clearfix.noprint","div.share_tinyurl.noprint"],"last_update":{"$date":"2020-06-23T10:34:24.806Z"},"category_id":"5ee08a80641642de280a048c"}
{"_id":{"$oid":"5ee1db51a562842283e675e1"},"box":"body \u003e div.container.m2 \u003e div \u003e div.col-md-12.col-offset-100.main-content \u003e div \u003e div.col-xs-12.col-sm-12.col-md-9 \u003e div.col-xs-12.col-sm-12.col-md-12.offset-300 \u003e div:nth-child(2) \u003e div.body \u003e div","create_date":{"$date":"2020-06-11T07:20:49.660Z"},"title":"a \u003e div \u003e h3","url":"https://www.khabarfoori.com/categories/1/%D8%B3%DB%8C%D8%A7%D8%B3%DB%8C","text":"body \u003e div.container.m2 \u003e div \u003e div.col-md-12.col-offset-100.main-content \u003e div \u003e div.col-xs-12.col-sm-12.col-md-9 \u003e div.col-xs-12.col-sm-12.col-md-12.offset-300","image":"a \u003e div \u003e div.category-img","base_url":"https://www.khabarfoori.com","summary":"a \u003e div \u003e p","date":"a \u003e div \u003e div.tools-box \u003e span","link":"a","source_id":"5ea580eb7631f639c489ad0c","exclude":["#pos-article-display-7243","div.endads","div.header-box \u003e div \u003e h4:nth-child(1)","div.header-box \u003e div \u003e h4:nth-child(3)","div.header-box \u003e div \u003e hr","div.header-box \u003e div \u003e div.category-box-detail","div.header-box \u003e div \u003e div.date-box","div.main.content-body.only-channel","div.no-print"],"last_update":{"$date":"2020-06-11T07:22:30.801Z"},"category_id":"5ee089ec641642de280a0427"}
{"_id":{"$oid":"5ee1db5ba562842283e675f7"},"box":"body \u003e div.container.m2 \u003e div \u003e div.col-md-12.col-offset-100.main-content \u003e div \u003e div.col-xs-12.col-sm-12.col-md-9 \u003e div.col-xs-12.col-sm-12.col-md-12.offset-300 \u003e div:nth-child(2) \u003e div.body \u003e div","create_date":{"$date":"2020-06-11T07:20:59.564Z"},"title":"a \u003e div \u003e h3","url":"https://www.khabarfoori.com/categories/7/%D8%A7%D9%82%D8%AA%D8%B5%D8%A7%D8%AF%DB%8C","text":"body \u003e div.container.m2 \u003e div \u003e div.col-md-12.col-offset-100.main-content \u003e div \u003e div.col-xs-12.col-sm-12.col-md-9 \u003e div.col-xs-12.col-sm-12.col-md-12.offset-300","image":"a \u003e div \u003e div.category-img","base_url":"https://www.khabarfoori.com","summary":"a \u003e div \u003e p","date":"a \u003e div \u003e div.tools-box \u003e span","link":"a","source_id":"5ea580eb7631f639c489ad0c","exclude":["#pos-article-display-7243","div.endads","div.header-box \u003e div \u003e h4:nth-child(1)","div.header-box \u003e div \u003e h4:nth-child(3)","div.header-box \u003e div \u003e hr","div.header-box \u003e div \u003e div.category-box-detail","div.header-box \u003e div \u003e div.date-box","div.main.content-body.only-channel","div.no-print"],"last_update":{"$date":"2020-06-11T07:23:19.067Z"},"category_id":"5ee089fa641642de280a0431"}
{"_id":{"$oid":"5ee1db5da562842283e67608"},"box":"body \u003e div.container.m2 \u003e div \u003e div.col-md-12.col-offset-100.main-content \u003e div \u003e div.col-xs-12.col-sm-12.col-md-9 \u003e div.col-xs-12.col-sm-12.col-md-12.offset-300 \u003e div:nth-child(2) \u003e div.body \u003e div","create_date":{"$date":"2020-06-11T07:21:01.911Z"},"title":"a \u003e div \u003e h3","url":"https://www.khabarfoori.com/categories/2/%D8%A7%D8%AC%D8%AA%D9%85%D8%A7%D8%B9%DB%8C","text":"body \u003e div.container.m2 \u003e div \u003e div.col-md-12.col-offset-100.main-content \u003e div \u003e div.col-xs-12.col-sm-12.col-md-9 \u003e div.col-xs-12.col-sm-12.col-md-12.offset-300","image":"a \u003e div \u003e div.category-img","base_url":"https://www.khabarfoori.com","summary":"a \u003e div \u003e p","date":"a \u003e div \u003e div.tools-box \u003e span","link":"a","source_id":"5ea580eb7631f639c489ad0c","exclude":["#pos-article-display-7243","div.endads","div.header-box \u003e div \u003e h4:nth-child(1)","div.header-box \u003e div \u003e h4:nth-child(3)","div.header-box \u003e div \u003e hr","div.header-box \u003e div \u003e div.category-box-detail","div.header-box \u003e div \u003e div.date-box","div.main.content-body.only-channel","div.no-print"],"last_update":{"$date":"2020-06-11T07:24:09.968Z"},"category_id":"5ee08a07641642de280a043b"}
{"_id":{"$oid":"5ee1db67a562842283e67622"},"box":"body \u003e div.container.m2 \u003e div \u003e div.col-md-12.col-offset-100.main-content \u003e div \u003e div.col-xs-12.col-sm-12.col-md-9 \u003e div.col-xs-12.col-sm-12.col-md-12.offset-300 \u003e div:nth-child(2) \u003e div.body \u003e div","create_date":{"$date":"2020-06-11T07:21:11.027Z"},"title":"a \u003e div \u003e h3","url":"https://www.khabarfoori.com/categories/3/%D9%81%D8%B1%D9%87%D9%86%DA%AF%DB%8C","text":"body \u003e div.container.m2 \u003e div \u003e div.col-md-12.col-offset-100.main-content \u003e div \u003e div.col-xs-12.col-sm-12.col-md-9 \u003e div.col-xs-12.col-sm-12.col-md-12.offset-300","image":"a \u003e div \u003e div.category-img","base_url":"https://www.khabarfoori.com","summary":"a \u003e div \u003e p","date":"a \u003e div \u003e div.tools-box \u003e span","link":"a","source_id":"5ea580eb7631f639c489ad0c","exclude":["#pos-article-display-7243","div.endads","div.header-box \u003e div \u003e h4:nth-child(1)","div.header-box \u003e div \u003e h4:nth-child(3)","div.header-box \u003e div \u003e hr","div.header-box \u003e div \u003e div.category-box-detail","div.header-box \u003e div \u003e div.date-box","div.main.content-body.only-channel","div.no-print"],"last_update":{"$date":"2020-06-11T07:24:42.107Z"},"category_id":"5ee08a39641642de280a045f"}
{"_id":{"$oid":"5ee1db71a562842283e67638"},"box":"body \u003e div.container.m2 \u003e div \u003e div.col-md-12.col-offset-100.main-content \u003e div \u003e div.col-xs-12.col-sm-12.col-md-9 \u003e div.col-xs-12.col-sm-12.col-md-12.offset-300 \u003e div:nth-child(2) \u003e div.body \u003e div","create_date":{"$date":"2020-06-11T07:21:21.087Z"},"title":"a \u003e div \u003e h3","url":"https://www.khabarfoori.com/categories/4/%D9%88%D8%B1%D8%B2%D8%B4%DB%8C","text":"body \u003e div.container.m2 \u003e div \u003e div.col-md-12.col-offset-100.main-content \u003e div \u003e div.col-xs-12.col-sm-12.col-md-9 \u003e div.col-xs-12.col-sm-12.col-md-12.offset-300","image":"a \u003e div \u003e div.category-img","base_url":"https://www.khabarfoori.com","summary":"a \u003e div \u003e p","date":"a \u003e div \u003e div.tools-box \u003e span","link":"a","source_id":"5ea580eb7631f639c489ad0c","exclude":["#pos-article-display-7243","div.endads","div.header-box \u003e div \u003e h4:nth-child(1)","div.header-box \u003e div \u003e h4:nth-child(3)","div.header-box \u003e div \u003e hr","div.header-box \u003e div \u003e div.category-box-detail","div.header-box \u003e div \u003e div.date-box","div.main.content-body.only-channel","div.no-print"],"last_update":{"$date":"2020-06-11T07:25:13.192Z"},"category_id":"5ee08a15641642de280a0447"}
{"_id":{"$oid":"5ee1db76a562842283e6764e"},"box":"body \u003e div.container.m2 \u003e div \u003e div.col-md-12.col-offset-100.main-content \u003e div \u003e div.col-xs-12.col-sm-12.col-md-9 \u003e div.col-xs-12.col-sm-12.col-md-12.offset-300 \u003e div:nth-child(2) \u003e div.body \u003e div","create_date":{"$date":"2020-06-11T07:21:26.237Z"},"title":"a \u003e div \u003e h3","url":"https://www.khabarfoori.com/categories/6/%D8%AF%D8%A7%D9%86%D8%B4","text":"body \u003e div.container.m2 \u003e div \u003e div.col-md-12.col-offset-100.main-content \u003e div \u003e div.col-xs-12.col-sm-12.col-md-9 \u003e div.col-xs-12.col-sm-12.col-md-12.offset-300","image":"a \u003e div \u003e div.category-img","base_url":"https://www.khabarfoori.com","summary":"a \u003e div \u003e p","date":"a \u003e div \u003e div.tools-box \u003e span","link":"a","source_id":"5ea580eb7631f639c489ad0c","exclude":["#pos-article-display-7243","div.endads","div.header-box \u003e div \u003e h4:nth-child(1)","div.header-box \u003e div \u003e h4:nth-child(3)","div.header-box \u003e div \u003e hr","div.header-box \u003e div \u003e div.category-box-detail","div.header-box \u003e div \u003e div.date-box","div.main.content-body.only-channel","div.no-print"],"last_update":{"$date":"2020-06-11T07:25:50.075Z"},"category_id":"5ee08a64641642de280a0475"}
{"_id":{"$oid":"5ee1db77a562842283e6765f"},"box":"body \u003e div.container.m2 \u003e div \u003e div.col-md-12.col-offset-100.main-content \u003e div \u003e div.col-xs-12.col-sm-12.col-md-9 \u003e div.col-xs-12.col-sm-12.col-md-12.offset-300 \u003e div:nth-child(2) \u003e div.body \u003e div","create_date":{"$date":"2020-06-11T07:21:27.915Z"},"title":"a \u003e div \u003e h3","url":"https://www.khabarfoori.com/categories/10/%D8%A7%D8%B3%D8%AA%D8%A7%D9%86%E2%80%8C%D9%87%D8%A7","text":"body \u003e div.container.m2 \u003e div \u003e div.col-md-12.col-offset-100.main-content \u003e div \u003e div.col-xs-12.col-sm-12.col-md-9 \u003e div.col-xs-12.col-sm-12.col-md-12.offset-300","image":"a \u003e div \u003e div.category-img","base_url":"https://www.khabarfoori.com","summary":"a \u003e div \u003e p","date":"a \u003e div \u003e div.tools-box \u003e span","link":"a","source_id":"5ea580eb7631f639c489ad0c","exclude":["#pos-article-display-7243","div.endads","div.header-box \u003e div \u003e h4:nth-child(1)","div.header-box \u003e div \u003e h4:nth-child(3)","div.header-box \u003e div \u003e hr","div.header-box \u003e div \u003e div.category-box-detail","div.header-box \u003e div \u003e div.date-box","div.main.content-body.only-channel","div.no-print"],"last_update":{"$date":"2020-06-11T07:26:36.129Z"},"category_id":"5ee08a22641642de280a0453"}
{"_id":{"$oid":"5ee1db79a562842283e67678"},"box":"body \u003e div.container.m2 \u003e div \u003e div.col-md-12.col-offset-100.main-content \u003e div \u003e div.col-xs-12.col-sm-12.col-md-9 \u003e div.col-xs-12.col-sm-12.col-md-12.offset-300 \u003e div:nth-child(2) \u003e div.body \u003e div","create_date":{"$date":"2020-06-11T07:21:29.791Z"},"title":"a \u003e div \u003e h3","url":"https://www.khabarfoori.com/categories/157/%D8%AD%D9%88%D8%A7%D8%AF%D8%AB","text":"body \u003e div.container.m2 \u003e div \u003e div.col-md-12.col-offset-100.main-content \u003e div \u003e div.col-xs-12.col-sm-12.col-md-9 \u003e div.col-xs-12.col-sm-12.col-md-12.offset-300","image":"a \u003e div \u003e div.category-img","base_url":"https://www.khabarfoori.com","summary":"a \u003e div \u003e p","date":"a \u003e div \u003e div.tools-box \u003e span","link":"a","source_id":"5ea580eb7631f639c489ad0c","exclude":["#pos-article-display-7243","div.endads","div.header-box \u003e div \u003e h4:nth-child(1)","div.header-box \u003e div \u003e h4:nth-child(3)","div.header-box \u003e div \u003e hr","div.header-box \u003e div \u003e div.category-box-detail","div.header-box \u003e div \u003e div.date-box","div.main.content-body.only-channel","div.no-print"],"last_update":{"$date":"2020-06-11T07:27:26.468Z"},"category_id":"5ee08a29641642de280a0459"}
{"_id":{"$oid":"5ee1db80a562842283e6768e"},"box":"body \u003e div.container.m2 \u003e div \u003e div.col-md-12.col-offset-100.main-content \u003e div \u003e div.col-xs-12.col-sm-12.col-md-9 \u003e div.col-xs-12.col-sm-12.col-md-12.offset-300 \u003e div:nth-child(2) \u003e div.body \u003e div","create_date":{"$date":"2020-06-11T07:21:36.045Z"},"title":"a \u003e div \u003e h3","url":"https://www.khabarfoori.com/multimedia","text":"body \u003e div.container.m2 \u003e div \u003e div.col-md-12.col-offset-100.main-content \u003e div \u003e div.col-xs-12.col-sm-12.col-md-9 \u003e div.col-xs-12.col-sm-12.col-md-12.offset-300","image":"a \u003e div \u003e div.category-img","base_url":"https://www.khabarfoori.com","summary":"a \u003e div \u003e p","date":"a \u003e div \u003e div.tools-box \u003e span","link":"a","source_id":"5ea580eb7631f639c489ad0c","exclude":["#pos-article-display-7243","div.endads","div.header-box \u003e div \u003e h4:nth-child(1)","div.header-box \u003e div \u003e h4:nth-child(3)","div.header-box \u003e div \u003e hr","div.header-box \u003e div \u003e div.category-box-detail","div.header-box \u003e div \u003e div.date-box","div.main.content-body.only-channel","div.no-print"],"last_update":{"$date":"2020-06-11T07:28:05.586Z"},"category_id":"5ee08a80641642de280a048c"}
{"_id":{"$oid":"5ee1dd4da562842283e67884"},"box":"#home \u003e div.row.body_b \u003e div \u003e div \u003e div.col1.col_no_adv.col-xs-36.col-md-21.col-lg-22 \u003e div:nth-child(2) \u003e div.col1_l_new.col-xs-36.col-md-23.col-lg-26.col-md-pull-13.col-lg-pull-10 \u003e div","create_date":{"$date":"2020-06-11T07:29:17.001Z"},"title":"h2 \u003e a","url":"https://aftabnews.ir/fa/culture","text":"#news \u003e div.row.body_b \u003e div \u003e div \u003e div.col-xs-36.col-sm-36.col-md-31.pull-left \u003e div.col_r_inner_news.col-xs-36.col-sm-26 \u003e div:nth-child(8)","image":"a \u003e img","base_url":"https://aftabnews.ir","summary":"div.akhbarvije_lead","date":"","link":"h2 \u003e a","source_id":"5ea5774e7631f639c489acb7","exclude":["div:nth-child(1)","#ynpos-6760","#ynpos-6761"],"last_update":{"$date":"2020-06-11T07:32:34.262Z"},"category_id":"5ee08a39641642de280a045f"}
{"_id":{"$oid":"5ee1dd88a562842283e6789e"},"box":"#home \u003e div.row.body_b \u003e div \u003e div \u003e div.col1.col_no_adv.col-xs-36.col-md-21.col-lg-22 \u003e div:nth-child(2) \u003e div.col1_l_new.col-xs-36.col-md-23.col-lg-26.col-md-pull-13.col-lg-pull-10 \u003e div","create_date":{"$date":"2020-06-11T07:30:16.948Z"},"title":"h2 \u003e a","url":"https://aftabnews.ir/fa/politic","text":"#news \u003e div.row.body_b \u003e div \u003e div \u003e div.col-xs-36.col-sm-36.col-md-31.pull-left \u003e div.col_r_inner_news.col-xs-36.col-sm-26 \u003e div:nth-child(8)","image":"a \u003e img","base_url":"https://aftabnews.ir","summary":"div.akhbarvije_lead","date":"","link":"h2 \u003e a","source_id":"5ea5774e7631f639c489acb7","exclude":["div:nth-child(1)","#ynpos-6760","#ynpos-6761"],"last_update":{"$date":"2020-06-11T07:33:09.111Z"},"category_id":"5ee089ec641642de280a0427"}
{"_id":{"$oid":"5ee1dd8ca562842283e678af"},"box":"#home \u003e div.row.body_b \u003e div \u003e div \u003e div.col1.col_no_adv.col-xs-36.col-md-21.col-lg-22 \u003e div:nth-child(2) \u003e div.col1_l_new.col-xs-36.col-md-23.col-lg-26.col-md-pull-13.col-lg-pull-10 \u003e div","create_date":{"$date":"2020-06-11T07:30:20.129Z"},"title":"h2 \u003e a","url":"https://aftabnews.ir/fa/economic","text":"#news \u003e div.row.body_b \u003e div \u003e div \u003e div.col-xs-36.col-sm-36.col-md-31.pull-left \u003e div.col_r_inner_news.col-xs-36.col-sm-26 \u003e div:nth-child(8)","image":"a \u003e img","base_url":"https://aftabnews.ir","summary":"div.akhbarvije_lead","date":"","link":"h2 \u003e a","source_id":"5ea5774e7631f639c489acb7","exclude":["div:nth-child(1)","#ynpos-6760","#ynpos-6761"],"last_update":{"$date":"2020-06-11T07:33:56.178Z"},"category_id":"5ee089fa641642de280a0431"}
{"_id":{"$oid":"5ee1dd90a562842283e678c9"},"box":"#home \u003e div.row.body_b \u003e div \u003e div \u003e div.col1.col_no_adv.col-xs-36.col-md-21.col-lg-22 \u003e div:nth-child(2) \u003e div.col1_l_new.col-xs-36.col-md-23.col-lg-26.col-md-pull-13.col-lg-pull-10 \u003e div","create_date":{"$date":"2020-06-11T07:30:24.923Z"},"title":"h2 \u003e a","url":"https://aftabnews.ir/fa/international","text":"#news \u003e div.row.body_b \u003e div \u003e div \u003e div.col-xs-36.col-sm-36.col-md-31.pull-left \u003e div.col_r_inner_news.col-xs-36.col-sm-26 \u003e div:nth-child(8)","image":"a \u003e img","base_url":"https://aftabnews.ir","summary":"div.akhbarvije_lead","date":"","link":"h2 \u003e a","source_id":"5ea5774e7631f639c489acb7","exclude":["div:nth-child(1)","#ynpos-6760","#ynpos-6761"],"last_update":{"$date":"2020-06-11T07:34:43.892Z"},"category_id":"5ee08a0f641642de280a0441"}
{"_id":{"$oid":"5ee1dd92a562842283e678d6"},"box":"#home \u003e div.row.body_b \u003e div \u003e div \u003e div.col1.col_no_adv.col-xs-36.col-md-21.col-lg-22 \u003e div:nth-child(2) \u003e div.col1_l_new.col-xs-36.col-md-23.col-lg-26.col-md-pull-13.col-lg-pull-10 \u003e div","create_date":{"$date":"2020-06-11T07:30:26.931Z"},"title":"h2 \u003e a","url":"https://aftabnews.ir/fa/health","text":"#news \u003e div.row.body_b \u003e div \u003e div \u003e div.col-xs-36.col-sm-36.col-md-31.pull-left \u003e div.col_r_inner_news.col-xs-36.col-sm-26 \u003e div:nth-child(8)","image":"a \u003e img","base_url":"https://aftabnews.ir","summary":"div.akhbarvije_lead","date":"","link":"h2 \u003e a","source_id":"5ea5774e7631f639c489acb7","exclude":["div:nth-child(1)","#ynpos-6760","#ynpos-6761"],"last_update":{"$date":"2020-06-11T07:35:08.743Z"},"category_id":"5ee08a1b641642de280a044d"}
{"_id":{"$oid":"5ee1dd95a562842283e678e7"},"box":"#home \u003e div.row.body_b \u003e div \u003e div \u003e div.col1.col_no_adv.col-xs-36.col-md-21.col-lg-22 \u003e div:nth-child(2) \u003e div.col1_l_new.col-xs-36.col-md-23.col-lg-26.col-md-pull-13.col-lg-pull-10 \u003e div","create_date":{"$date":"2020-06-11T07:30:29.747Z"},"title":"h2 \u003e a","url":"https://aftabnews.ir/fa/sports","text":"#news \u003e div.row.body_b \u003e div \u003e div \u003e div.col-xs-36.col-sm-36.col-md-31.pull-left \u003e div.col_r_inner_news.col-xs-36.col-sm-26 \u003e div:nth-child(8)","image":"a \u003e img","base_url":"https://aftabnews.ir","summary":"div.akhbarvije_lead","date":"","link":"h2 \u003e a","source_id":"5ea5774e7631f639c489acb7","exclude":["div:nth-child(1)","#ynpos-6760","#ynpos-6761"],"last_update":{"$date":"2020-06-11T07:36:37.019Z"},"category_id":"5ee08a15641642de280a0447"}
{"_id":{"$oid":"5ee1dd99a562842283e67905"},"box":"#home \u003e div.row.body_b \u003e div \u003e div \u003e div.col1.col_no_adv.col-xs-36.col-md-21.col-lg-22 \u003e div:nth-child(2) \u003e div.col1_l_new.col-xs-36.col-md-23.col-lg-26.col-md-pull-13.col-lg-pull-10 \u003e div","create_date":{"$date":"2020-06-11T07:30:33.969Z"},"title":"h2 \u003e a","url":"https://aftabnews.ir/fa/social","text":"#news \u003e div.row.body_b \u003e div \u003e div \u003e div.col-xs-36.col-sm-36.col-md-31.pull-left \u003e div.col_r_inner_news.col-xs-36.col-sm-26 \u003e div:nth-child(8)","image":"a \u003e img","base_url":"https://aftabnews.ir","summary":"div.akhbarvije_lead","date":"","link":"h2 \u003e a","source_id":"5ea5774e7631f639c489acb7","exclude":["div:nth-child(1)","#ynpos-6760","#ynpos-6761"],"last_update":{"$date":"2020-06-11T07:37:08.254Z"},"category_id":"5ee08a29641642de280a0459"}
{"_id":{"$oid":"5ee1ddcda562842283e6791f"},"box":"#home \u003e div.row.body_b \u003e div \u003e div \u003e div.col1.col_no_adv.col-xs-36.col-md-21.col-lg-22 \u003e div:nth-child(2) \u003e div.col1_l_new.col-xs-36.col-md-23.col-lg-26.col-md-pull-13.col-lg-pull-10 \u003e div","create_date":{"$date":"2020-06-11T07:31:25.219Z"},"title":"h2 \u003e a","url":"https://aftabnews.ir/fa/science","text":"#news \u003e div.row.body_b \u003e div \u003e div \u003e div.col-xs-36.col-sm-36.col-md-31.pull-left \u003e div.col_r_inner_news.col-xs-36.col-sm-26 \u003e div:nth-child(8)","image":"a \u003e img","base_url":"https://aftabnews.ir","summary":"div.akhbarvije_lead","date":"","link":"h2 \u003e a","source_id":"5ea5774e7631f639c489acb7","exclude":["div:nth-child(1)","#ynpos-6760","#ynpos-6761"],"last_update":{"$date":"2020-06-11T07:37:37.883Z"},"category_id":"5ee08a64641642de280a0475"}
{"_id":{"$oid":"5ee1ddd6a562842283e67935"},"box":"#home \u003e div.row.body_b \u003e div \u003e div \u003e div.col1.col_no_adv.col-xs-36.col-md-21.col-lg-22 \u003e div:nth-child(2) \u003e div.col1_l_new.col-xs-36.col-md-23.col-lg-26.col-md-pull-13.col-lg-pull-10 \u003e div","create_date":{"$date":"2020-06-11T07:31:34.943Z"},"title":"h2 \u003e a","url":"https://aftabnews.ir/fa/multimedia","text":"#news \u003e div.row.body_b \u003e div \u003e div \u003e div.col-xs-36.col-sm-36.col-md-31.pull-left \u003e div.col_r_inner_news.col-xs-36.col-sm-26 \u003e div:nth-child(8)","image":"a \u003e img","base_url":"https://aftabnews.ir","summary":"div.akhbarvije_lead","date":"","link":"h2 \u003e a","source_id":"5ea5774e7631f639c489acb7","exclude":["div:nth-child(1)","#ynpos-6760","#ynpos-6761"],"last_update":{"$date":"2020-06-11T07:38:17.420Z"},"category_id":"5ee08a80641642de280a048c"}
{"_id":{"$oid":"5ee1ddd9a562842283e67946"},"box":"#home \u003e div.row.body_b \u003e div \u003e div \u003e div.col1.col_no_adv.col-xs-36.col-md-21.col-lg-22 \u003e div:nth-child(2) \u003e div.col1_l_new.col-xs-36.col-md-23.col-lg-26.col-md-pull-13.col-lg-pull-10 \u003e div","create_date":{"$date":"2020-06-11T07:31:37.951Z"},"title":"h2 \u003e a","url":"https://aftabnews.ir/fa/social","text":"#news \u003e div.row.body_b \u003e div \u003e div \u003e div.col-xs-36.col-sm-36.col-md-31.pull-left \u003e div.col_r_inner_news.col-xs-36.col-sm-26 \u003e div:nth-child(8)","image":"a \u003e img","base_url":"https://aftabnews.ir","summary":"div.akhbarvije_lead","date":"","link":"h2 \u003e a","source_id":"5ea5774e7631f639c489acb7","exclude":["div:nth-child(1)","#ynpos-6760","#ynpos-6761"],"last_update":{"$date":"2020-06-11T07:39:40.559Z"},"category_id":"5ee08a07641642de280a043b"}
{"_id":{"$oid":"5ee1dffca562842283e67a63"},"box":"body \u003e div \u003e main \u003e div \u003e div.main-wrapper \u003e div \u003e div.home-col-one \u003e div.right-h-col-one \u003e div.container.margin-top-16 \u003e div.editor-sg-cnt \u003e section \u003e ul \u003e li","create_date":{"$date":"2020-06-11T07:40:44.850Z"},"title":"div.l-editor-content \u003e h3 \u003e a","url":"https://www.rokna.net/%D8%A8%D8%AE%D8%B4-%D8%B3%DB%8C%D8%A7%D8%B3%DB%8C-74","text":"#news-page-article","image":"div.r-editor-content \u003e a \u003e img","base_url":"https://www.rokna.net","summary":"","date":"div.l-editor-content \u003e time","link":"div.r-editor-content \u003e a","source_id":"5ea55f127631f639c489aca2","exclude":["header \u003e div.home-zxc.res-zxc.zxc_dsktop","header \u003e div.home-zxc.res-zxc-mobile.zxc_mbile","header \u003e div:nth-child(3)","header \u003e div.news-top-stuff","header \u003e aside","#echo-detail \u003e div:nth-child(1) \u003e div","#echo-detail \u003e div:nth-child(1) \u003e p:nth-child(6)","#echo-detail \u003e div:nth-child(1) \u003e p:nth-child(7)","#echo-detail \u003e div.attach-side","#echo-detail \u003e div:nth-child(3)","#echo-detail \u003e script:nth-child(4)","#echo-detail \u003e div.news-bottom-link.noprint","#echo-detail \u003e script:nth-child(6)","#echo-detail \u003e div.rating-news","#echo-detail \u003e div:nth-child(8)","#echo-detail \u003e div:nth-child(9)"],"last_update":{"$date":"2020-06-11T07:42:07.854Z"},"category_id":"5ee089ec641642de280a0427"}
{"_id":{"$oid":"5ee1e015a562842283e67a79"},"box":"body \u003e div \u003e main \u003e div \u003e div.landing-outer \u003e div.landing-col-1 \u003e div \u003e div \u003e section \u003e ul \u003e li","create_date":{"$date":"2020-06-11T07:41:09.623Z"},"title":"div.l-landing-list \u003e h3 \u003e a","url":"https://www.rokna.net/%D8%A8%D8%AE%D8%B4-%D8%AD%D9%88%D8%A7%D8%AF%D8%AB-23","text":"#news-page-article","image":"div.r-landing-list \u003e a \u003e img","base_url":"https://www.rokna.net","summary":"div.l-landing-list \u003e p","date":"div.l-editor-content \u003e time","link":"div.r-landing-list \u003e a","source_id":"5ea55f127631f639c489aca2","exclude":["header \u003e div.home-zxc.res-zxc.zxc_dsktop","header \u003e div.home-zxc.res-zxc-mobile.zxc_mbile","header \u003e div:nth-child(3)","header \u003e div.news-top-stuff","header \u003e aside","#echo-detail \u003e div:nth-child(1) \u003e div","#echo-detail \u003e div:nth-child(1) \u003e p:nth-child(6)","#echo-detail \u003e div:nth-child(1) \u003e p:nth-child(7)","#echo-detail \u003e div.attach-side","#echo-detail \u003e div:nth-child(3)","#echo-detail \u003e script:nth-child(4)","#echo-detail \u003e div.news-bottom-link.noprint","#echo-detail \u003e script:nth-child(6)","#echo-detail \u003e div.rating-news","#echo-detail \u003e div:nth-child(8)","#echo-detail \u003e div:nth-child(9)"],"last_update":{"$date":"2020-06-22T17:40:42.905Z"},"category_id":"5ee08a29641642de280a0459"}
{"_id":{"$oid":"5ee1e017a562842283e67a8e"},"box":"body \u003e div \u003e main \u003e div \u003e div.main-wrapper \u003e div \u003e div.home-col-one \u003e div.right-h-col-one \u003e div.container.margin-top-16 \u003e div.editor-sg-cnt \u003e section \u003e ul \u003e li","create_date":{"$date":"2020-06-11T07:41:11.555Z"},"title":"div.l-editor-content \u003e h3 \u003e a","url":"https://www.rokna.net/%D8%A8%D8%AE%D8%B4-%D8%A7%D8%B3%D8%AA%D8%A7%D9%86%DB%8C-52","text":"#news-page-article","image":"div.r-editor-content \u003e a \u003e img","base_url":"https://www.rokna.net","summary":"","date":"div.l-editor-content \u003e time","link":"div.r-editor-content \u003e a","source_id":"5ea55f127631f639c489aca2","exclude":["header \u003e div.home-zxc.res-zxc.zxc_dsktop","header \u003e div.home-zxc.res-zxc-mobile.zxc_mbile","header \u003e div:nth-child(3)","header \u003e div.news-top-stuff","header \u003e aside","#echo-detail \u003e div:nth-child(1) \u003e div","#echo-detail \u003e div:nth-child(1) \u003e p:nth-child(6)","#echo-detail \u003e div:nth-child(1) \u003e p:nth-child(7)","#echo-detail \u003e div.attach-side","#echo-detail \u003e div:nth-child(3)","#echo-detail \u003e script:nth-child(4)","#echo-detail \u003e div.news-bottom-link.noprint","#echo-detail \u003e script:nth-child(6)","#echo-detail \u003e div.rating-news","#echo-detail \u003e div:nth-child(8)","#echo-detail \u003e div:nth-child(9)"],"last_update":{"$date":"2020-06-11T07:43:24.490Z"},"category_id":"5ee08a22641642de280a0453"}
